Id,Scientific,Longitude,Latitude,LocalityNa,Source
930741478,Carya pallida,-88.15657,36.95134,"Star Camp picnic area, Land Between The LakesKentucky,US",GBIF
623648052,Carya pallida,-86.116181,31.274509,"By AL 134, 1.6 mi E PerryAlabama,US",GBIF
574740113,Carya pallida,-82.564,35.496694,"Blue Ridge HighwayNorth Carolina,US",GBIF
4088568045,Carya pallida,-88.724041,31.698053,"Powerline north of Old U.S. 84Mississippi,US",GBIF
4088565434,Carya pallida,-88.766516,31.460882,"Gopher Farm Sandhill, DeSoto National ForestMississippi,US",GBIF
4088559774,Carya pallida,-89.17074,31.207854,"Camp ShelbyMississippi,US",GBIF
4088559349,Carya pallida,-89.68986,33.705005,"Camp McCain, area 3B, vic. of hill for helicopter landings; T21N, R6E, S5 SE4Mississippi,US",GBIF
4067740359,Carya pallida,-75.942716,38.96678,"Tuckahoe State ParkMaryland,US",GBIF
4067739300,Carya pallida,-76.617071,39.085088,"Old Orchard Circle, Pointfield Landing, Atlantic Coastal Plain, Western ShoreMaryland,US",GBIF
4060926894,Carya pallida,-77.61916,35.25972,"On Neuse River, at boatramps off Rt. 70 ca. 2 mi W of Kinston. Coastal plain.North Carolina,US",GBIF
4061504641,Carya pallida,-83.45,34.5,"Currahee Mountain, 4 miles SW of Toccoa.Georgia,US",GBIF
4042875523,Carya pallida,-83.27,34.3,"""Stephens Co.,Georgia"",US",GBIF
4041123496,Carya pallida,-76.7742,39.1623,"N. of Baltimore Airport.Maryland,US",GBIF
4010715075,Carya pallida,-78.14816,37.045433,"Nottoway Falls Park, ca. 5.2 miles NE of Victoria. Slope above the falls, < 0.1 mi. SE of the Rt 49 bridge.Virginia,US",GBIF
3960434316,Carya pallida,-85.4316,35.0897,"Chattanooga, Davis pond Rd. At jct with Tower Dr.Tennessee,US",GBIF
3925842797,Carya pallida,-88.900334,33.987055,"Nearest post office; Van Vleet.Mississippi,US",GBIF
3925842799,Carya pallida,-88.904299,33.906864,"Ca 1 mi N of Van Vleet near Natchez Trace. T13S, R4E, S32.Mississippi,US",GBIF
3925842794,Carya pallida,-88.688932,32.095148,"Clarkco State Park.Mississippi,US",GBIF
3925842792,Carya pallida,-88.88821,33.746768,"T15S, R4E, S28, W2, S21, SW4, 3.25 mi NE of Montpelier.Mississippi,US",GBIF
3925843787,Carya pallida,-89.477126,33.74584,"Ca 1.25 mi S of MS Hwy 8 and 1.6 mi E of Grenada Co. T22N, R8E, S29, SW4.Mississippi,US",GBIF
3925842783,Carya pallida,-89.292,33.883,"Ca 2 mi N of Derma near Oak Springs Church & Cemetary. T14S, R1W, S10, NW/4 of the NW/4. Northcentral Hills physiographic region.Mississippi,US",GBIF
3925842776,Carya pallida,-89.58861,34.27222,"Taylor.Mississippi,US",GBIF
3925842775,Carya pallida,-89.535024,34.365806,"Lyceum Grove opposite Bryant Hall. UM CampusMississippi,US",GBIF
3925842771,Carya pallida,-88.569505,34.008494,"Vicinity of Central Grove; Cedar Prairie woodland on Peacely Ferry Rd at ca 1.1 mi E of jct w/Central Grove Rd. T12S R7E sec 28 SW/4.Mississippi,US",GBIF
3925842770,Carya pallida,-89.466468,34.656766,"Wall Doxey State Park.Mississippi,US",GBIF
3925842769,Carya pallida,-88.417328,30.865802,"1 mi NW of Miss-Alabama St line.Mississippi,US",GBIF
3925842762,Carya pallida,-90.261944,31.871511,"5.7 mi W of GeorgetownMississippi,US",GBIF
3925842761,Carya pallida,-89.458924,31.687007,"5 miS of Hot Coffee Hwy 37 & 84Mississippi,US",GBIF
3925842755,Carya pallida,-89.672851,32.320146,"Roosevelt State Park, 3 mi SW of Morton.Mississippi,US",GBIF
3925842754,Carya pallida,-89.993672,31.886517,"Ca 2.5 mi W of Pinola on Hwy 28 (0.4 mi W of Strong River).Mississippi,US",GBIF
3925842749,Carya pallida,-90.018415,31.823189,"Ca 5 mi SW of Pinola on Cowhill rd 0.4 mi N of Shivers Lookout Tower. T10N, R20W, S21, NW4, SE4.Mississippi,US",GBIF
3925842747,Carya pallida,-88.20921,34.45179,"Ca 4 mi S Belmont, SE1/4, S14.Mississippi,US",GBIF
3925842745,Carya pallida,-89.909128,33.974575,"1 mi SW of Tillatoba; ca 0.5 mi W of US Hwy 51 on Co Rd 9. T24N, R4E, section line of S6 & 7.Mississippi,US",GBIF
3925842740,Carya pallida,-89.081902,31.20547,"Miles Branch Rec Area, W of New Augusta, nr Leaf River.Mississippi,US",GBIF
3925842739,Carya pallida,-90.513177,31.192455,"Percy Quinn State Park, 5 mi SW of McComb.Mississippi,US",GBIF
3925842715,Carya pallida,-88.679983,33.484567,"T19N, R15E, S25, on Hwy 182, on N side of the rd, Black Prairie Region, just W of Co line, Sand Hickory.Mississippi,US",GBIF
3925842700,Carya pallida,-90.45754,31.516196,"Nr Bogue Chitto River, Hwy 51.Mississippi,US",GBIF
3925842697,Carya pallida,-89.170658,31.030719,"Around the edge of Ashe Lake at Brooklyn.Mississippi,US",GBIF
3925842690,Carya pallida,-89.527024,33.893726,"Behind Dividing Ridge Church.Mississippi,US",GBIF
3925842689,Carya pallida,-89.620863,33.874529,"1.7 mi E on CR 144, T23N, R6E, S12.Mississippi,US",GBIF
3925842639,Carya pallida,-90.844329,31.166682,"Ethel S. Vance Natural Area, a few mi W of Liberty on MS 24 nr the West Fork Amite River. T2N R4E sec 6 S/2 SE/4Mississippi,US",GBIF
3925843690,Carya pallida,-89.236181,33.891501,"Ca 3mi W of Vardaman from large tree ca 100 m SE of New Liberty Church.Mississippi,US",GBIF
3925842637,Carya pallida,-89.432604,33.778989,"Ca 9 mi SW of Calhoun City on S side of Hwy 8. T22N, R8E, S12(?).Mississippi,US",GBIF
3925841801,Carya pallida,-85.61299,34.49025,"Desoto/Little River Canyon, along roadway leading to cabins & trails.Alabama,US",GBIF
3925832301,Carya pallida,-89.5265,33.6985,"ca 6 mi SE of Gore Springs, North Central Plateau; ridgetop adj to N-facing slope; also near base of N-facing slope in somewhat richer soilMississippi,US",GBIF
3899130860,Carya pallida,-89.26048,33.41565,"Jeff Busby Park, Little Mountain trails.Mississippi,US",GBIF
3873750534,Carya pallida,-88.117576,36.730153,"Kentucky,US",GBIF
3873720525,Carya pallida,-82.876182,35.944716,"North Carolina,US",GBIF
3865401263,Carya pallida,-74.747994,39.199999,"E of DennisvilleNew Jersey,US",GBIF
3865400236,Carya pallida,-75.331304,39.37928,"Lanings WharfNew Jersey,US",GBIF
3865399294,Carya pallida,-74.654666,39.258076,"SW of MarmoraNew Jersey,US",GBIF
3865397259,Carya pallida,-75.131565,39.867891,"WestvilleNew Jersey,US",GBIF
3865396185,Carya pallida,-75.599369,38.360674,"Salisbury; 38.360674 -75.599369Maryland,US",GBIF
3865392128,Carya pallida,-75.385473,38.690113,"near GeorgetownDelaware,US",GBIF
3865131112,Carya pallida,-75.309914,38.777612,"MiltonDelaware,US",GBIF
3865129206,Carya pallida,-75.063295,39.486221,"2 miles W of VinelandNew Jersey,US",GBIF
3865129207,Carya pallida,-74.820318,39.19337,"DennisvilleNew Jersey,US",GBIF
3865128171,Carya pallida,-75.189558,39.831838,"West DeptfordNew Jersey,US",GBIF
3865125146,Carya pallida,-74.883995,39.226891,"near East Creek Pond, East CreekNew Jersey,US",GBIF
3829941033,Carya pallida,-90.057483,31.641708,"Crooked Creek. S.B. Culpepper farm 5 mi W of Newhebron, MS.Mississippi,US",GBIF
3829941031,Carya pallida,-88.18987,34.614005,"Bear Creek, Tishomingo State ParkMississippi,US",GBIF
3829941029,Carya pallida,-89.732211,34.347317,"6 mi SE of Sardis DamMississippi,US",GBIF
3829941024,Carya pallida,-88.516136,31.996606,"Buckatunna Creek. 1 mi SE of Denham, MSMississippi,US",GBIF
3829941022,Carya pallida,-90.404103,31.397548,"Walter McGuffie place, 2 mi SE of Bouge Chitto.Mississippi,US",GBIF
3829941016,Carya pallida,-91.02177,31.284486,"6 mi N of Gloster, MSMississippi,US",GBIF
3829949550,Carya pallida,-89.711803,34.641669,"Near Thyatira, 1 mi W of Wyatte, MSMississippi,US",GBIF
3829941011,Carya pallida,-89.20952,34.945262,"Along MS Rte. 72Mississippi,US",GBIF
3829938823,Carya pallida,-88.626128,33.450719,"In Black Prairie Region, 9 miles east of State College.Mississippi,US",GBIF
3829941014,Carya pallida,-88.52,30.8075,"Wyatt Hills, Black CreekMississippi,US",GBIF
3829941030,Carya pallida,-89.5875,33.114968,"Four Mile Spring. Ca. 4 mi N of P.O. Kosciusko, MSMississippi,US",GBIF
3829939026,Carya pallida,-87.541621,35.068383,"Along crest of mountain between Lane Gap and Mt. Nebo. Elev 2000 ft.Tennessee,US",GBIF
3829917105,Carya pallida,-88.882972,33.433002,"Mississippi,US",GBIF
3829914492,Carya pallida,-88.771355,33.556057,"Near Trim Cane Creek, in Black Prairie Region, 6 mi. north of Starkville.Mississippi,US",GBIF
3766334280,Carya pallida,-85.47657,32.54865,"CHEWACLA STATE PARK. ALONG DEER RUB TRAIL CA. 225 FT SSE OF PAVILION AT WEST END OF LARGE LAWN, END OF MURPHY DRIVE LOOP.Alabama,US",GBIF
3766334270,Carya pallida,-86.707742,31.161735,"SOLON DIXON FORESTRY EDUCATION CENTER, SAND RIDGE TRAIL, STAND 2-9.Alabama,US",GBIF
3766334263,Carya pallida,-84.826298,32.445536,"FT. BENNING, GA. COMPARTMENT M6 (TROUP 453).Georgia,US",GBIF
3744710423,Carya pallida,-86.54,31.91,"3 air mi SW of Blountsville.Alabama,US",GBIF
3744711804,Carya pallida,-85.41,33.99,"Indian Mountain. Near N34 01 10.9 W85 25 30.6; North of access road leading to south side of Forever Wild Tract.Alabama,US",GBIF
3744711802,Carya pallida,-87.03,33.05,"ca 9.4 mi NE of Centreville ca 0.75 mi WNW of Bulldog Bend Bridge ca 0.05 mi N of Little Cahaba RiverAlabama,US",GBIF
3744711616,Carya pallida,-85.18,32.46,"On Co Rd 79 at St. Paul's CME Church, ca. 1 mi N of Crawford; N1/2 Sec 13, T17N R28EAlabama,US",GBIF
3744711614,Carya pallida,-85.11,31.25,"ca. 3 miles south of Columbia; Woods around George Andrews Lock & Dam public areaAlabama,US",GBIF
3744711612,Carya pallida,-86.04,34.08,"Bruton Gap Road, E of I-59; 1.5 mi. E of Pleasant Hill [Britton Gap on label]Alabama,US",GBIF
3744711611,Carya pallida,-85.68,33.6,"EdenAlabama,US",GBIF
3744683632,Carya pallida,-81.59,34.27,"Lynch's Woods Park. Off of US 76. 0.7 mi SE of jct with SC 219. Ca. 1.5 mi E of downtown Newberry.South Carolina,US",GBIF
3709984780,Carya pallida,-84.126147,32.198186,"Andersonville National Historic Site: along n border of National Prisoner of War Museum parking lot.Georgia,US",GBIF
3709977930,Carya pallida,-84.140682,33.810615,"Stone Mountain ParkGeorgia,US",GBIF
3709944616,Carya pallida,-83.485139,32.502647,"Private propertyGeorgia,US",GBIF
3709966910,Carya pallida,-83.557881,32.506678,"Oaky Woods WMAGeorgia,US",GBIF
3707760954,Carya pallida,-88.7682,32.9523,"Ca 2 mi NW of Gholson, take blacktop rd N from Hwy 21, 0.5 mi W of Gholson, at 0.4 mi take dirt rd. 2.1 mi W.Mississippi,US",GBIF
3707759742,Carya pallida,-89.591111,32.42,"NW corner at FS Road Crossing NW of Forest ECC# 1995.22.03Mississippi,US",GBIF
3707759180,Carya pallida,-89.519722,32.076111,"Grand Sir Area, NE of Raleigh ECC# 1995.17.04Mississippi,US",GBIF
3707758511,Carya pallida,-88.057667,32.586167,"Path running to Old Bluffport above Tombigbee RiverAlabama,US",GBIF
3707758040,Carya pallida,-89.2217,32.194,"Tallahalla Wildlife Mgmt. Area, ca. 100 yds. W of Randall Hill CemeteryMississippi,US",GBIF
3707751358,Carya pallida,-90.13027,31.06325,"Lake Walthall, SSE of Tylertown. Lake down about 10 ft. Boat launch area on northern arm and trail through the woods to eastern armMississippi,US",GBIF
3707751334,Carya pallida,-89.3889,32.28694,"2 mi S of I-20 on FS Hwy 551, then W on FS 551f and proceed 2.7 mi, Prairie about 0.3 Mi N of roadMississippi,US",GBIF
3707749725,Carya pallida,-88.8398,32.2275,"Chunky River, ca. 1 river km W of I-59.Mississippi,US",GBIF
3707725541,Carya pallida,-90.172778,34.507806,"Fowler Creek (NRCS #8)Mississippi,US",GBIF
3707740546,Carya pallida,-89.4942,34.11222,"Chestnut Oak Disjunct National Natural Landmark; ca. 6.3 air mi NW of Bannear.Mississippi,US",GBIF
3707736561,Carya pallida,-88.6546,32.9226,"Ca 10 mi N of Dekalb.Mississippi,US",GBIF
3707733689,Carya pallida,-88.7222,30.70922,"Red Creek Mitigation Bank. Property lies east of Hwy 57, south of Red Creek, and north of Old River Rd.Mississippi,US",GBIF
3707733538,Carya pallida,-88.927,34.042,"E of Davis Lake dam.Mississippi,US",GBIF
3707728268,Carya pallida,-89.802,34.4292,"John W. Kyle State Park. Dry woods north of tennis/pool.Mississippi,US",GBIF
3707726599,Carya pallida,-89.1339,33.1972,"Ca 4 mi NW of Louisville, ca .1 mi W of Hwy 15 on S side of FAS blacktop.Mississippi,US",GBIF
3707726445,Carya pallida,-89.7522,33.8056,"Cedar Point-Grenada Lake on old Miss Hwy 8 ca 1.5 mi NE jct. present 8.Mississippi,US",GBIF
3707726103,Carya pallida,-89.38314,31.949722,"Bobby Ainsworth property. South of Sylvarena on CR 99, past West Tallahallala Creek, to CR 95.Mississippi,US",GBIF
3707726026,Carya pallida,-90.400556,31.991389,"Peavey Property. Property lies west of end of Peavy Lane, south of New Zion Rd.Mississippi,US",GBIF
3707725964,Carya pallida,-88.922,32.923,"Ca 2 mi NW of Prince Chapel (In Kemper Co), at Nanih Waiya Park near Nanih Waiya cave.Mississippi,US",GBIF
3707725629,Carya pallida,-89.926389,33.025833,"Holmes Co S. P. Near spillway, woods along nature trail, on lake's edgeMississippi,US",GBIF
3707725444,Carya pallida,-90.199722,31.643056,"Walden's Woods. Sontag, MS. Property lies along Bear Creek west of main road through SontagMississippi,US",GBIF
3707720277,Carya pallida,-90.155,32.325,"LeFleurs Bluff State Park.Mississippi,US",GBIF
3707719275,Carya pallida,-89.33777,33.32545,"xeric ridge, sandstone outcropMississippi,US",GBIF
3499008979,Carya pallida,-85.24633,34.326,"Old Mill, Berry CollegeGA+S2:AA2,US",GBIF
3496975054,Carya pallida,-77.029289,37.721376,"Large down tree undercut by Mattaponi River; sheer, North facing bluff just West of St. Rt. 629 bridge, across river from Walkerton, VAVirginia,US",GBIF
3496975050,Carya pallida,-76.798254,37.493265,"Growing at base of steep wooded slope along back edge of York River beach; 0.8 miles west of Philobates Creek. P.O. BarhamsvilleVirginia,US",GBIF
3496974487,Carya pallida,-83.319978,35.477129,"US 441 & SR 19, Qualla Boundary ReservationNorth Carolina,US",GBIF
3496974484,Carya pallida,-76.518665,37.572774,"Scattered trees in dry woods on east side of old, unmarked road just east of My Lady's Swamp on north side of VA Rt. 629, about 3.8 miles SE of junction with VA Rt. 33, west of HealysVirginia,US",GBIF
3496974480,Carya pallida,-76.637042,37.028455,"Along Co. Rt. 673, 1.0 miles from junction with Bus. Rt. 10. North of LawsonVirginia,US",GBIF
3470664604,Carya pallida,-78.721943,34.443212,"Town of Angier.North Carolina,US",GBIF
3470664358,Carya pallida,-78.755578,35.40415,"Campbell University Campus. Keith Hills Golf Country Club. Wooded margins of the golf course.North Carolina,US",GBIF
3455737264,Carya pallida,-89.227442,35.016243,"Tennessee,US",GBIF
3455225570,Carya pallida,-86.100111,34.997815,"Tennessee,US",GBIF
3435799822,Carya pallida,-84.6616,36.06882,"Obed Wilda and Scenic River, 4.3 airmiles SW of Wartburg, E side of Emory River at Nemo Bridge Picnic Area.Tennessee,US",GBIF
3344496851,Carya pallida,-80.984444,32.229167,"84 Bridle Ct., Midway Farms Subdivision, Priitchardville Community.South Carolina,US",GBIF
3335138604,Carya pallida,-88.312313,36.622356,"Kentucky,US",GBIF
3333431367,Carya pallida,-86.314075,34.770971,"Alabama,US",GBIF
3308145997,Carya pallida,-74.9678,39.29042,"To the N side of a short section of a short section of Rt. 670 between these two roads. Town of Maurice River, Cumberland CO.New jersey,US",GBIF
3113668471,Carya pallida,-88.767455,35.38693,"Tennessee,US",GBIF
3097030441,Carya pallida,-88.236275,32.858855,"Alabama,US",GBIF
3090635717,Carya pallida,-74.710614,39.734092,"New Jersey,US",GBIF
3059693531,Carya pallida,-78.75,35.755,"Coastal Plain, Pine Plains Rd. Near 35°45'18""N, 78°45'E. 107 m/ 350 ft. Remnant mixed forest with a low wet area.North Carolina,US",GBIF
4061890048,Carya pallida,-89.529709,36.84876,"Botanical Inventory of Sikeston Ridge sand prairie remnants, Missouri Dept. of Conservation. Big Prairie Tract east of State Hwy. AA.Missouri,US",GBIF
2988347460,Carya pallida,-90.319516,31.558275,"Mississippi,US",GBIF
2988338471,Carya pallida,-90.386947,31.52044,"Mississippi,US",GBIF
2873938304,Carya pallida,-76.829978,39.020939,"Maryland,US",GBIF
2873810350,Carya pallida,-89.459983,37.48383,"Illinois,US",GBIF
2873783406,Carya pallida,-78.097344,33.915165,"North Carolina,US",GBIF
2859401993,Carya pallida,-78.103839,35.73184,"2.9 mi NW of Rock RidgeNorth Carolina,US",GBIF
2859400902,Carya pallida,-85.483061,32.594931,"Donald E. Davis Arboretum, Auburn UniversityAlabama,US",GBIF
2859367146,Carya pallida,-76.907474,39.034832,"Beltsville, Powder Mill RdMaryland,US",GBIF
2825495675,Carya pallida,-78.331795,35.712357,"at intersection of Old Johnson Rd. & Applewhite Rd.North Carolina,US",GBIF
2640530533,Carya pallida,-84.672955,30.357332,"Quad: Ward... Appalachicola National Forest, Wakulla RD, Cpt 237, plot APAL 24, ""Rock Bluff 9""; N of Smith Creek Rd, W of FR 390... Sitecode: APPA NFFlorida,US",GBIF
2572994750,Carya pallida,-80.49092,33.520719,"Santee State Park, near Chapel Hill Baptist Church NE of Rte 6, sinkhole area, ca 1 mi NW of Rte 301.South Carolina,US",GBIF
2572937628,Carya pallida,-89.7882,33.9836,"Holly Springs Nat'l Forest, S of Hwy 330 at pull-in for Yalobusha Work CenterMississippi,US",GBIF
2542874267,Carya pallida,-84.907403,35.7972,"Tennessee,US",GBIF
2540732399,Carya pallida,-88.072594,36.846803,"Kentucky,US",GBIF
2294433288,Carya pallida,-89.256641,31.408586,"Mississippi,US",GBIF
2273391843,Carya pallida,-82.800532,35.254532,"Outcrop: Cedar Rock Mountain ,Slope: east to S.W.,Elevation: 2800-2980',Association: Oak-Hickory,Habitat: Nearly flat to gently sloping, edge outcrop.,Locality: DuPont Reservation, north on Buck Forest Road n. at U.S. 276 at Cedar Mt., N.C.North Carolina",GBIF
2273391058,Carya pallida,-82.626836,35.105951,"Outcrop: South of Caesar's Head,Slope: South ,Elevation: 2000',Habitat: crevices,Locality: Adjacent to U.S. 276 about 4 mi. south of Caesar's Head observation tower.South Carolina,US",GBIF
2245574931,Carya pallida,-80.32383,34.489727,"McBeeSouth Carolina,US",GBIF
2238810660,Carya pallida,-78.976785,35.202772,"North Carolina,US",GBIF
2234324398,Carya pallida,-79.692837,34.316822,"Witherspoon IslandSouth Carolina,US",GBIF
1990212708,Carya pallida,-78.670128,35.786902,"Raleigh, between Hillsboro and Western, N. C. State Universi...North Carolina,US",GBIF
1989968113,Carya pallida,-83.963702,35.913904,"Timberlake Rd., W of Alcoa HwyTennessee,US",GBIF
1949978374,Carya pallida,-79.369503,35.150473,"North Carolina,US",GBIF
1945429535,Carya pallida,-86.125229,32.034588,"Alabama,US",GBIF
1932898788,Carya pallida,-75.412418,39.545947,"Quinton, South Burden Hill Road, 0.2 miles SW of Highway 49New Jersey,US",GBIF
1930829317,Carya pallida,-87.080757,31.004935,"near South Fork of Lindsey Creek, Sec. 32, Escambia Exp. ForestAlabama,US",GBIF
1930587089,Carya pallida,-75.64656,38.56044,"1.6 mi SW of Bethel, along N side of Phillips Landing RoadDelaware,US",GBIF
1930542568,Carya pallida,-85.349403,34.994242,"Lookout Mt.Tennessee,US",GBIF
1930531000,Carya pallida,-88.409213,34.273993,"P.O. Fulton.Mississippi,US",GBIF
3496974483,Carya pallida,-76.0357,36.91693,"First Landing State Park. North of Broad Bay, South of US 60 (Shore Drive), SE of Fort Story Military ReservationVirginia,US",GBIF
1930385179,Carya pallida,-85.719689,34.444255,"P.O. Fort Payne.Alabama,US",GBIF
1929993719,Carya pallida,-75.754989,38.689925,"Town of Federalsburg, Frank M. Adams Industrial Park Drive, at edge of remnant woods around first cul-de-sac on the north side ofthe road.Maryland,US",GBIF
1929970851,Carya pallida,-75.4708,38.2011,"Pocomoke State Forest, S of S end of TNC Furnace Town parking area, W of Millville Rd. ~0.25 mi S of jct w/ Old Furnace Rd.Maryland,US",GBIF
1929785812,Carya pallida,-86.80249,33.520661,"BirminghamAlabama,US",GBIF
1929736081,Carya pallida,-88.277283,35.959303,"ca 13 km ESE of Huntingdon town and ca 24 km W of the Tennessee River, ca 100 m north of the Big Sandy RiverTennessee,US",GBIF
1929614252,Carya pallida,-80.946923,34.017217,"near ColumbiaSouth Carolina,US",GBIF
1930128292,Carya pallida,-84.105194,33.71233,"Edge of outcrops near Lithonia.Georgia,US",GBIF
1928218899,Carya pallida,-79.055844,35.9132,"Middle North Carolina; Chapel Hill.North Carolina,US",GBIF
1928859227,Carya pallida,-75.4786,38.3344,"Nassawango Creek TNC Preserve, Ace Timberlands, ~0.25 mi N of Twilleys Bridge Rd., 0.8 mi W of jct w/ Fooks Rd.Maryland,US",GBIF
1928848115,Carya pallida,-81.974838,33.47097,"AugustaGeorgia,US",GBIF
1928428457,Carya pallida,-90.505848,31.03558,"About 2.8 miles northwest of Osyka.Mississippi,US",GBIF
1927948996,Carya pallida,-82.62,34.058333,"On narrow floodplain along the Savannah River; alluvial forest. Site #12, a. 1.5 miles south of the S. C. 72 bridge over the Savannah River. Below the 475-ft. contour (full pool for propsed Russell Lake).South Carolina,US",GBIF
3496974488,Carya pallida,-76.856807,36.824973,"Southeast corner of Blackwater Ecological Preserve of Old Dominion Univeristy, part of the Zuni Pine Barrens Preserves along with Antioch Pines Natural Area Preserve, ca 5 miles south of the town of Zuni, NW of Route 614, W of Horse Swamp, E of the Black",GBIF
1899881848,Carya pallida,-87.38879,32.92561,"Alabama,US",GBIF
1899880449,Carya pallida,-87.430468,32.955033,"Alabama,US",GBIF
1849194198,Carya pallida,-81.645224,33.288169,"Savannah River PlantSouth Carolina,US",GBIF
1849178185,Carya pallida,-81.0718,33.3895,"Good Hope ChurchSouth Carolina,US",GBIF
1849173219,Carya pallida,-80.7064,33.645,"CalhounSouth Carolina,US",GBIF
1849171938,Carya pallida,-81.71464,33.31699,"Savannah River Site; Management Area 3, Tims Branch, Whiskey Rd (2 Road/State Hwy 19) crossing (Savannah River Operations Area of the Atomic Commission, Batson/Freeman Station 2)South Carolina,US",GBIF
1849125509,Carya pallida,-81.547643,33.248888,"Savannah River SiteSouth Carolina,US",GBIF
1849152357,Carya pallida,-83.096387,34.967792,"King CreekSouth Carolina,US",GBIF
1849125892,Carya pallida,-81.744389,33.239167,"Savannah River SiteSouth Carolina,US",GBIF
1849118399,Carya pallida,-81.611347,33.16347,"Savannah River Site; Station 31South Carolina,US",GBIF
1849113557,Carya pallida,-81.647459,33.379998,"Savannah River Site; Station 75South Carolina,US",GBIF
1849109514,Carya pallida,-80.874145,32.336616,"Altamaha Towne Heritage PreserveSouth Carolina,US",GBIF
1849093330,Carya pallida,-82.132861,34.768444,"Enoree RiverSouth Carolina,US",GBIF
1503240269,Carya pallida,-87.2094,30.9619,"W-facing slope above Bristow Lake on Escambia River floodplain, ca. 0.4 air mi. N of FL 4, ca. 3.6 air mi.WNW of Jay.  T5N, R30W, Sec. 40.Florida,US",GBIF
1503194191,Carya pallida,-86.4822,30.5169,"Near the N edge of Niceville, ca. 0.5 mi. N of FL 190, on the campus of Okaloosa-Walton Junior College; along N-facing slope of South Fork Fox Head Branch.  T1N, R22W, Sec. 32, center of W½.Florida,US",GBIF
1321363817,Carya pallida,-76.3814,38.3844,"Columbia Long Facility at Cove PointMaryland,US",GBIF
1322961202,Carya pallida,-77.7208,38.8014,"South of Highway 55, Pond MountainVirginia,US",GBIF
1304452423,Carya pallida,-76.83111,36.86583,"ZuniVirginia,US",GBIF
1304452396,Carya pallida,-89.956545,30.967368,"Crains Creek and near Crains Cemetary along LA Hwy 62, ca. 5 mi. NE of PineLouisiana,US",GBIF
1304439002,Carya pallida,-87.017988,30.733081,"hardwoods on rim of bayhead of Weaver Creek, Eglin Airforce Base, just off Fla. Rt. 87.Florida,US",GBIF
1304438910,Carya pallida,-84.883083,30.241138,"Along Apalachicola River, near Bristol.Florida,US",GBIF
1304438959,Carya pallida,-84.27767,30.45846,"Specimen from sapling ca 2.5 m tall.  Saplings frequent beneath and around several large trees of C. cordiformis at Woodyard Hammock fairly near Lake Iamonia, Tall Timbers Research Station, N of Tallahassee.Florida,US",GBIF
1304439005,Carya pallida,-86.163023,30.659326,"old field, sand ridge; at Poetland.Florida,US",GBIF
1304438972,Carya pallida,-85.625531,30.305154,"Jr. MuseumFlorida,US",GBIF
1269727759,Carya pallida,-90.370833,30.805,"Sandy Hollow Wildlife Management Area; Sandy Hollow WMA, N of Jackson Road ca 1.25 mi W of jct. w/ LA 1061, 0.73 mi S of jct. w/ LA 10 in WIlmer.Louisiana,US",GBIF
1304452400,Carya pallida,-88.7894,30.3917,"Mowed lawn directly surrounding Visitor Center; Zone 16, 328080 Em, 3363554 Nm.Mississippi,US",GBIF
1260981460,Carya pallida,-89.851389,36.8975,"Ca. 2 mi S of Avert off Highway A B in Williams Creek valley low beech, poplar woodsMissouri,US",GBIF
1260988829,Carya pallida,-89.513056,37.046667,"Racetrack, W side of County Road 505, SW corner of 80 acre ownership; Morley Quadrangle sand savanna/sand forestMissouri,US",GBIF
1260952003,Carya pallida,-89.511111,36.943056,"Pleasant Valley Cemetery, ca. 2 mi NE of Miner along margin of cemetery edge of hickory-oak forestMissouri,US",GBIF
1260947304,Carya pallida,-89.493333,37.001111,"2 mi E of Blodgett on S side of County Road 514 scotco sand woods, 4 - 12% slopeoak, hickoryMissouri,US",GBIF
1257980545,Carya pallida,-89.497972,37.097917,"Sand Prairie Conservation Area, along County Road 333, 1.9 airline miles ENE of the intersection of I-55 and MO Hwy. 77.Missouri,US",GBIF
168091206,Carya pallida,-76.40282546,37.69600082,"Old Saint Johns Rd, Weems, VA, US",Inaturalist
162569029,Carya pallida,-80.22900278,34.56689444,"Chesterfield County, SC, USA",Inaturalist
160717596,Carya pallida,-79.74023101,35.97132561,"Pleasant Garden, NC, USA",Inaturalist
159028160,Carya pallida,-78.88500814,35.18539033,"Pine Forest, Fayetteville, NC, US",Inaturalist
142943410,Carya pallida,-86.84975339,33.38825655,"Oak Ridge Cir, Hoover, AL, US",Inaturalist
140203739,Carya pallida,-85.4723945,32.483395,"Auburn, AL 36830, USA",Inaturalist
138397124,Carya pallida,-81.32877826,35.71935325,"Kiwanis Park, Hickory, NC, US",Inaturalist
136196960,Carya pallida,-88.29423593,32.88855451,"Emelle, AL, US",Inaturalist
120465245,Carya pallida,-90.29029667,32.30548833,"I-20 E, Jackson, MS, US",Inaturalist
107052896,Carya pallida,-84.71528036,36.09993216,"Obed Wild and Scenic River, Morgan County, US-TN, US",Inaturalist
79299757,Carya pallida,-89.99470242,31.29457619,"Marion County, MS, USA",Inaturalist
78279211,Carya pallida,-74.93350044,39.56738321,"Franklin, NJ, USA",Inaturalist
63096436,Carya pallida,-85.78554399,35.2228366,"Monteagle, TN 37356, USA",Inaturalist
60387451,Carya pallida,-77.829575,34.21320333,"Airlie Gardens, Wilmington, NC, US",Inaturalist
56375837,Carya pallida,-75.03562878,39.3552206,"Millville, NJ, US",Inaturalist
51143005,Carya pallida,-84.95357209,30.55951913,"Liberty County, FL, USA",Inaturalist
50544947,Carya pallida,-85.37018667,35.724505,"Fall Creek Falls State Park, Spencer, TN, US",Inaturalist
49788551,Carya pallida,-84.51305333,32.89333333,"Manchester, GA, US",Inaturalist
45722328,Carya pallida,-83.22006978,36.36771182,"Mooresburg, TN 37811, USA",Inaturalist
43730283,Carya pallida,-79.05829717,35.82905333,"Boothe Hill Rd, Chapel Hill, NC, US",Inaturalist
43095894,Carya pallida,-79.19983017,35.70903396,"Alston Chapel Rd, Pittsboro, NC, US",Inaturalist
34891621,Carya pallida,-79.60236824,35.27184359,"Seven Lakes, NC, USA",Inaturalist
32447040,Carya pallida,-85.63968667,31.38257,"Will Logan Rd, Ozark, AL, US",Inaturalist
32387883,Carya pallida,-82.28138833,35.130555,"Chestnut Ridge Heritage Preserve, Greenville, South Carolina, United States",Inaturalist
31286471,Carya pallida,-88.04422778,36.787575,"Trigg, Kentucky, United States",Inaturalist
23141103,Carya pallida,-78.49328613,35.79301834,"108 Stanway Dr, Knightdale, NC 27545, USA",Inaturalist
16795094,Carya pallida,-85.64411125,33.28226072,"36266, Lineville, AL, US",Inaturalist
13372940,Carya pallida,-78.64430333,36.00261945,"11405 Falls of Neuse Rd, Wake Forest, NC, US",Inaturalist
11947083,Carya pallida,-79.3371146,35.19944006,"Vass, NC  28394, Vass, NC, US",Inaturalist
6467589,Carya pallida,-82.01856136,34.14782586,"Greenwood County, SC, USA",Inaturalist
5624313,Carya pallida,-81.20166334,33.82884018,"817?€?899 Peachtree Rock Rd, Lexington, SC, US",Inaturalist
